Lat,Long,Name,2020-03-01,2020-03-02,2020-03-03,2020-03-04,2020-03-05,2020-03-06,2020-03-07,2020-03-08,2020-03-09,2020-03-10,2020-03-11,2020-03-12,2020-03-13,2020-03-14,2020-03-15,2020-03-16,2020-03-17,2020-03-18,2020-03-19,2020-03-20,2020-03-21,2020-03-22,2020-03-23,2020-03-24,2020-03-25,2020-03-26,2020-03-27,2020-03-28,2020-03-29,2020-03-30,2020-03-31
33.0,65.0,Afghanistan,1,1,1,1,1,1,1,4,4,5,7,7,7,11,16,20,21,21,21,23,23,38,38,72,80,88,104,104,114,164,165
41.1533,20.1683,Albania,0,0,0,0,0,0,0,0,2,10,11,22,32,37,41,50,54,57,62,68,72,85,98,108,124,151,147,156,169,168,176
28.0339,1.6596,Algeria,1,3,5,12,12,17,17,19,20,20,20,15,16,22,32,38,44,55,46,47,92,119,148,221,216,313,354,394,449,512,626
42.5063,1.5218,Andorra,0,1,1,1,1,1,1,1,1,1,1,0,1,0,0,1,38,38,52,74,87,111,131,162,186,220,263,304,327,352,354
-11.2027,17.8739,Angola,0,0,0,0,0,0,0,0,0,0,0,0,0,0,0,0,0,0,0,1,2,2,3,3,3,4,4,5,5,5,4
18.2206,-63.0686,"Anguilla, United Kingdom",0,0,0,0,0,0,0,0,0,0,0,0,0,0,0,0,0,0,0,0,0,0,0,0,0,0,0,2,2,2,2
31.8257,117.2264,"Anhui, China",111,67,48,28,14,5,5,0,0,0,0,0,0,0,0,0,0,0,0,0,0,0,0,0,0,0,0,0,0,0,0
17.0608,-61.7964,Antigua and Barbuda,0,0,0,0,0,0,0,0,0,0,0,0,1,1,1,1,1,1,1,1,1,1,3,3,3,7,7,7,7,7,7
-38.4161,-63.6167,Argentina,0,0,1,1,1,2,8,11,11,16,18,18,29,31,42,53,63,74,91,122,151,259,294,329,327,430,504,600,654,569,787
40.0691,45.0382,Armenia,1,1,1,1,1,1,1,1,1,1,1,4,8,18,26,52,77,83,114,135,159,192,233,235,249,271,300,376,391,449,499
12.5186,-70.0358,"Aruba, Netherlands",0,0,0,0,0,0,0,0,0,0,0,0,2,2,2,2,3,4,4,5,5,9,9,11,16,27,32,45,49,49,54
-35.4735,149.0124,"Australian Capital Territory, Australia",0,0,0,0,0,0,0,0,0,0,0,0,1,1,1,2,2,3,4,6,9,19,32,39,39,52,61,69,75,75,76
47.5162,14.5501,Austria,14,18,21,29,41,55,79,104,129,178,242,297,497,648,853,1009,1328,1633,1998,2373,2797,3557,4444,5246,5549,6748,7374,7978,8223,8874,8957
40.1431,47.5769,Azerbaijan,3,3,3,3,6,6,9,9,9,11,8,8,11,11,16,21,21,21,37,37,41,54,61,76,81,104,147,163,190,243,267
25.0343,-77.3963,Bahamas,0,0,0,0,0,0,0,0,0,0,0,0,0,0,0,1,1,1,3,3,4,4,4,4,4,8,9,9,10,13,13
26.0275,50.55,Bahrain,47,49,49,52,55,56,81,81,81,88,160,160,151,166,154,136,146,167,177,184,179,183,226,212,238,250,235,207,223,232,268
23.685,90.3563,Bangladesh,0,0,0,0,0,0,0,3,3,3,3,3,3,3,5,6,7,10,13,16,20,22,27,30,27,28,32,28,28,25,21
13.1939,-59.5432,Barbados,0,0,0,0,0,0,0,0,0,0,0,0,0,0,0,0,2,2,5,5,6,14,17,18,18,18,24,26,33,33,34
40.1824,116.4142,"Beijing, China",129,124,118,113,113,115,115,112,105,101,101,93,86,80,81,84,79,83,92,93,100,114,129,149,150,152,153,155,157,154,154
53.7098,27.9534,Belarus,1,1,1,6,6,6,6,6,5,6,6,9,24,24,24,33,33,46,46,64,61,61,66,59,57,57,62,62,62,120,104
50.8333,4.0,Belgium,1,7,12,22,49,108,168,199,238,266,310,310,555,684,881,1052,1232,1441,1743,2219,2485,3063,3392,3686,4212,5340,6137,7718,9046,9859,10374
13.1939,-59.5432,Belize,0,0,0,0,0,0,0,0,0,0,0,0,0,0,0,0,0,0,0,0,0,0,1,1,2,2,2,2,2,3,3
9.3077,2.3158,Benin,0,0,0,0,0,0,0,0,0,0,0,0,0,0,0,1,1,2,2,2,2,2,5,6,6,6,6,6,6,6,8
32.3078,-64.7505,"Bermuda, United Kingdom",0,0,0,0,0,0,0,0,0,0,0,0,0,0,0,0,0,0,2,2,2,6,6,6,7,13,15,15,20,25,22
27.5142,90.4336,Bhutan,0,0,0,0,0,1,1,1,1,1,1,1,1,1,1,1,1,1,1,2,2,2,2,2,2,2,3,3,4,4,4
-16.2902,-63.5887,Bolivia,0,0,0,0,0,0,0,0,0,0,2,2,3,10,10,11,11,12,12,15,19,24,27,29,32,43,61,74,80,93,101
12.1784,-68.2385,"Bonaire, Sint Eustatius and Saba, Netherlands",0,0,0,0,0,0,0,0,0,0,0,0,0,0,0,0,0,0,0,0,0,0,0,0,0,0,0,0,0,0,0
43.9159,17.6791,Bosnia and Herzegovina,0,0,0,0,2,2,3,3,3,5,7,11,13,18,24,25,24,36,61,87,90,123,133,161,171,186,228,248,309,341,390
-22.3285,24.6849,Botswana,0,0,0,0,0,0,0,0,0,0,0,0,0,0,0,0,0,0,0,0,0,0,0,0,0,0,0,0,0,3,3
-14.235,-51.9253,Brazil,2,2,2,4,4,13,13,20,25,31,38,52,151,151,162,199,318,367,613,780,1004,1519,1888,2199,2493,2902,3319,3787,4114,4300,5389
18.4207,-64.64,"British Virgin Islands, United Kingdom",0,0,0,0,0,0,0,0,0,0,0,0,0,0,0,0,0,0,0,0,0,0,0,0,0,0,0,2,2,2,3
4.5353,114.7277,Brunei,0,0,0,0,0,0,0,0,1,1,11,11,37,40,50,54,56,68,75,77,81,86,89,102,107,109,104,94,91,88,83
42.7339,25.4858,Bulgaria,0,0,0,0,0,0,0,4,4,4,6,6,22,39,49,50,65,90,91,124,157,181,195,212,235,253,281,313,324,334,374
12.2383,-1.5616,Burkina Faso,0,0,0,0,0,0,0,0,0,1,2,2,2,2,3,15,15,19,32,39,57,66,90,103,132,135,159,175,187,203,215
21.9162,95.956,Burma,0,0,0,0,0,0,0,0,0,0,0,0,0,0,0,0,0,0,0,0,0,0,0,0,0,0,8,8,10,14,14
-3.3731,29.9189,Burundi,0,0,0,0,0,0,0,0,0,0,0,0,0,0,0,0,0,0,0,0,0,0,0,0,0,0,0,0,0,0,2
16.5388,-23.0418,Cabo Verde,0,0,0,0,0,0,0,0,0,0,0,0,0,0,0,0,0,0,0,1,3,3,3,2,3,3,4,4,5,5,5
11.55,104.9167,Cambodia,0,0,0,0,0,0,0,1,1,1,2,2,4,6,6,6,32,34,36,50,52,83,86,87,86,86,88,86,82,86,86
3.848,11.5021,Cameroon,0,0,0,0,0,1,1,2,2,2,2,2,2,2,2,4,10,10,13,20,27,40,56,66,72,72,87,87,128,128,182
19.3133,-81.2546,"Cayman Islands, United Kingdom",0,0,0,0,0,0,0,0,0,0,0,0,1,1,1,0,0,0,2,2,2,2,4,5,7,7,7,7,7,11,13
6.6111,20.9394,Central African Republic,0,0,0,0,0,0,0,0,0,0,0,0,0,0,1,1,1,1,1,3,3,3,3,3,3,3,3,3,3,3,3
15.4542,18.7322,Chad,0,0,0,0,0,0,0,0,0,0,0,0,0,0,0,0,0,0,1,1,1,1,1,3,3,3,3,3,3,5,7
49.3723,-2.3644,"Channel Islands, United Kingdom",0,0,0,0,0,0,0,0,0,1,2,2,2,2,3,6,6,6,11,14,32,32,36,36,46,65,87,96,106,139,138
-35.6751,-71.543,Chile,0,0,1,1,4,4,4,8,8,13,23,23,43,61,74,155,201,238,238,428,531,623,736,903,1117,1280,1562,1842,2057,2285,2570
30.0572,107.874,"Chongqing, China",120,101,80,68,58,57,44,43,28,23,16,6,4,1,0,0,0,0,0,0,0,1,2,2,2,2,2,2,3,3,3
4.5709,-74.2973,Colombia,0,0,0,0,0,1,1,1,1,3,9,9,13,22,34,54,64,92,101,127,195,226,271,369,458,477,523,592,682,771,859
-11.6455,43.3333,Comoros,0,0,0,0,0,0,0,0,0,0,0,0,0,0,0,0,0,0,0,0,0,0,0,0,0,0,0,0,0,0,0
-4.0383,21.7587,Congo (Brazzaville),0,0,0,0,0,0,0,0,0,0,0,0,0,0,1,1,1,1,3,3,3,3,4,4,4,4,4,4,19,19,19
-4.0383,21.7587,Congo (Kinshasa),0,0,0,0,0,0,0,0,0,0,1,1,2,2,2,2,3,4,14,18,22,29,35,43,46,48,46,57,57,71,88
9.7489,-83.7534,Costa Rica,0,0,0,0,0,1,1,5,9,9,13,22,23,26,27,35,41,50,68,88,113,130,154,173,197,227,258,290,309,324,341
7.54,-5.5471,Cote d'Ivoire,0,0,0,0,0,0,0,0,0,0,1,1,1,1,1,1,4,5,8,8,13,13,24,71,77,93,98,98,160,161,171
45.1,15.2,Croatia,7,7,9,10,10,11,12,12,12,14,19,19,31,37,48,55,61,77,99,122,200,248,309,376,419,470,546,607,655,717,794
22.0,-80.0,Cuba,0,0,0,0,0,0,0,0,0,0,0,3,4,4,4,4,5,6,10,15,20,34,39,46,55,64,74,112,132,162,172
12.1696,-68.99,"Curacao, Netherlands",0,0,0,0,0,0,0,0,0,0,0,0,0,1,1,1,3,3,2,2,2,2,3,5,5,3,5,5,5,8,8
35.1264,33.4299,Cyprus,0,0,0,0,0,0,0,0,2,3,6,6,14,26,26,33,46,49,67,67,84,91,112,118,126,139,142,159,194,201,231
49.8175,15.473,Czechia,3,3,5,8,12,18,19,31,31,41,91,94,141,189,253,295,393,461,691,829,989,1113,1229,1381,1638,1906,2259,2609,2790,2953,3232
56.2639,9.5018,Denmark,4,4,6,10,10,22,22,34,89,261,441,614,800,825,861,910,972,1052,1144,1245,1312,1381,1425,1558,1689,1835,1993,2135,2322,2499,2769
0.0,0.0,Diamond Princess,689,689,690,690,690,660,660,660,660,660,374,374,374,374,374,374,374,380,380,380,379,379,379,377,115,105,105,105,99,99,99
11.8251,42.5903,Djibouti,0,0,0,0,0,0,0,0,0,0,0,0,0,0,0,0,0,1,1,1,1,1,3,3,11,11,12,14,18,18,30
15.415,-61.371,Dominica,0,0,0,0,0,0,0,0,0,0,0,0,0,0,0,0,0,0,0,0,0,1,2,2,7,11,11,11,11,11,12
18.7357,-70.1627,Dominican Republic,1,1,1,1,1,2,2,5,5,5,5,5,5,11,11,11,20,20,32,70,110,199,242,303,379,475,558,688,817,855,1053
-1.8312,-78.1834,Ecuador,6,6,7,10,13,13,13,14,15,15,17,17,17,26,26,35,56,109,196,362,496,772,960,1052,1142,1366,1556,1772,1863,1899,2111
26.0,30.0,Egypt,1,1,1,1,2,14,14,47,53,57,32,39,51,80,87,121,160,158,218,238,243,257,291,302,340,369,390,419,437,465,507
13.7942,-88.8965,El Salvador,0,0,0,0,0,0,0,0,0,0,0,0,0,0,0,0,0,0,1,1,3,3,3,5,9,13,13,19,24,30,31
1.5,10.0,Equatorial Guinea,0,0,0,0,0,0,0,0,0,0,0,0,0,0,1,1,1,4,6,6,6,6,9,9,9,12,12,12,12,12,11
15.1794,39.7823,Eritrea,0,0,0,0,0,0,0,0,0,0,0,0,0,0,0,0,0,0,0,0,1,1,1,1,4,6,6,6,12,12,15
58.5953,25.0136,Estonia,1,1,2,2,3,10,10,10,10,12,16,16,79,115,170,204,224,257,266,282,305,324,350,362,395,529,563,624,656,692,715
-26.5225,31.4659,Eswatini,0,0,0,0,0,0,0,0,0,0,0,0,0,1,1,1,1,1,1,1,1,4,4,4,4,6,9,9,9,9,9
9.145,40.4897,Ethiopia,0,0,0,0,0,0,0,0,0,0,0,0,1,1,1,5,5,6,6,9,9,7,7,12,12,12,16,15,20,19,24
-51.7963,-59.5236,"Falkland Islands (Malvinas), United Kingdom",0,0,0,0,0,0,0,0,0,0,0,0,0,0,0,0,0,0,0,0,0,0,0,0,0,0,0,0,0,0,0
61.8926,-6.9118,"Faroe Islands, Denmark",0,0,0,1,1,1,1,2,2,2,2,2,3,9,11,18,47,58,72,80,92,115,118,89,94,93,90,101,89,98,95
-17.7134,178.065,Fiji,0,0,0,0,0,0,0,0,0,0,0,0,0,0,0,0,0,0,1,1,1,2,3,4,5,5,5,5,5,5,5
64.0,26.0,Finland,5,5,5,5,11,14,14,22,29,39,58,58,154,224,234,267,311,326,390,440,512,615,689,781,867,943,1024,1148,1219,1329,1391
46.2276,2.2137,France,116,176,188,269,359,632,926,1095,1178,1739,2221,2221,3570,4366,4396,6473,7492,8883,10616,12150,13708,13144,16796,17961,20002,22511,25269,29561,30366,33599,39161
3.9339,-53.1258,"French Guiana, France",0,0,0,0,0,0,5,5,5,5,5,5,5,5,7,11,11,11,11,15,18,12,14,17,22,22,22,22,22,37,37
-17.6797,149.4068,"French Polynesia, France",0,0,0,0,0,0,0,0,0,0,0,0,3,3,3,3,3,3,6,11,15,18,18,25,25,30,30,30,30,36,36
26.0789,117.9874,"Fujian, China",48,40,35,25,18,11,0,0,0,0,0,0,0,0,0,0,0,0,0,3,7,17,17,22,26,32,35,41,42,44,47
-0.8037,11.6094,Gabon,0,0,0,0,0,0,0,0,0,0,0,0,0,1,1,1,1,1,1,2,3,4,4,5,5,6,6,6,6,6,15
13.4432,-15.3101,Gambia,0,0,0,0,0,0,0,0,0,0,0,0,0,0,0,0,1,1,1,1,1,1,1,2,2,2,2,2,3,3,3
37.8099,101.0583,"Gansu, China",5,4,3,2,13,30,31,35,34,35,37,37,37,38,40,40,40,40,41,34,19,20,20,15,15,13,11,9,11,11,11
42.3154,43.3569,Georgia,3,3,3,3,4,4,4,13,15,15,24,24,25,30,33,32,33,37,39,42,48,51,58,61,65,68,69,76,73,83,89
51.0,9.0,Germany,114,143,180,246,466,653,781,1022,1156,1437,1880,2050,3622,4530,5738,7188,9166,12194,15163,19601,21896,24513,28667,29586,33570,37998,43871,48781,52351,52740,54933
7.9465,-1.0232,Ghana,0,0,0,0,0,0,0,0,0,0,0,0,0,3,6,6,7,7,11,16,18,22,25,51,89,127,131,134,145,145,125
36.1408,-5.3536,"Gibraltar, United Kingdom",0,0,0,1,1,1,1,1,1,0,0,0,0,0,0,0,2,6,8,8,8,13,13,10,21,22,41,42,51,35,35
39.0742,21.8243,Greece,7,7,7,9,31,45,46,73,73,89,98,98,189,217,319,319,374,405,404,470,498,590,659,694,763,830,886,977,1066,1117,1213
71.7069,-42.6043,"Greenland, Denmark",0,0,0,0,0,0,0,0,0,0,0,0,0,0,0,1,1,1,2,2,2,4,4,3,4,4,8,8,8,8,8
12.1165,-61.679,Grenada,0,0,0,0,0,0,0,0,0,0,0,0,0,0,0,0,0,0,0,0,0,1,1,1,1,7,7,7,9,9,9
16.25,-61.5833,"Guadeloupe, France",0,0,0,0,0,0,0,0,0,0,0,0,1,1,3,6,18,27,33,45,53,57,61,61,72,72,72,83,85,85,88
23.3417,113.4244,"Guangdong, China",326,284,242,210,163,129,108,89,84,71,66,59,52,49,48,47,49,49,52,64,67,76,75,87,89,104,111,118,118,125,130
23.8298,108.7881,"Guangxi, China",69,58,48,40,36,33,32,27,20,16,12,9,7,7,7,2,3,1,1,2,2,2,2,2,2,2,2,2,2,2,2
15.7835,-90.2308,Guatemala,0,0,0,0,0,0,0,0,0,0,0,0,0,1,1,1,5,5,8,11,16,18,19,20,19,20,23,23,23,25,25
9.9456,-9.6966,Guinea,0,0,0,0,0,0,0,0,0,0,0,0,1,1,1,1,1,1,1,1,2,2,4,4,4,4,8,8,16,22,22
11.8037,-15.1804,Guinea-Bissau,0,0,0,0,0,0,0,0,0,0,0,0,0,0,0,0,0,0,0,0,0,0,0,0,2,2,2,2,2,8,8
26.8154,106.8748,"Guizhou, China",32,30,30,30,30,30,29,27,21,15,11,7,4,1,1,0,1,0,0,0,0,0,0,0,0,0,0,0,0,0,0
5.0,-58.75,Guyana,0,0,0,0,0,0,0,0,0,0,0,0,0,0,3,3,6,6,6,6,6,18,19,4,4,4,4,7,7,7,10
19.1959,109.7453,"Hainan, China",14,12,8,5,4,4,4,3,3,3,3,2,2,2,2,1,1,1,1,1,1,1,1,0,0,0,0,0,0,0,0
18.9712,-72.2852,Haiti,0,0,0,0,0,0,0,0,0,0,0,0,0,0,0,0,0,0,0,2,2,2,6,7,8,8,8,8,14,14,14
39.549,116.1306,"Hebei, China",18,16,12,11,8,7,5,5,5,5,5,4,2,2,2,2,2,2,2,2,2,3,3,3,3,3,3,3,3,5,5
47.862,127.7615,"Heilongjiang, China",125,111,101,94,89,72,65,56,38,34,33,28,23,22,16,14,13,10,10,8,8,5,6,3,3,2,2,2,2,2,2
33.882,113.614,"Henan, China",52,45,19,16,11,6,6,3,3,3,2,2,2,1,1,1,1,1,1,1,1,2,2,2,2,3,3,2,3,3,3
41.9029,12.4534,Holy See,0,0,0,0,0,1,1,1,1,1,1,1,1,1,1,1,1,1,1,1,1,1,1,4,4,4,4,6,6,6,6
15.2,-86.2419,Honduras,0,0,0,0,0,0,0,0,0,0,2,2,2,2,3,6,8,9,12,24,24,26,30,30,36,51,67,91,104,129,131
22.3,114.2,"Hong Kong, China",58,62,61,66,60,59,55,53,53,52,58,59,53,58,60,67,70,85,109,154,171,213,252,281,304,339,405,445,525,555,582
30.9756,112.2707,"Hubei, China",32610,30366,28174,25904,23972,22628,21207,19486,18247,16993,15593,14407,13171,11755,10421,9557,8685,7751,6988,6285,5715,5214,4768,4317,3827,3431,2895,2526,2049,1726,1461
27.6104,111.7088,"Hunan, China",148,127,108,98,76,59,54,46,35,24,19,15,9,0,0,0,0,0,0,0,0,0,0,0,0,0,0,0,0,0,0
47.1625,19.5033,Hungary,0,0,0,2,2,2,4,7,9,9,13,13,19,29,30,37,47,55,70,80,92,109,144,157,195,223,256,298,361,398,439
64.9631,-19.0208,Iceland,3,6,11,26,34,43,50,50,58,68,84,102,133,155,158,180,219,244,324,404,450,531,551,595,679,718,791,847,883,927,935
21.0,78.0,India,0,2,2,25,27,28,31,36,40,52,57,68,76,96,98,104,125,139,175,219,303,362,462,486,602,662,794,879,902,1117,1239
-0.7893,113.9213,Indonesia,0,2,2,2,2,4,4,6,19,25,31,31,63,83,104,121,159,197,275,322,397,437,501,601,701,780,913,994,1107,1217,1311
44.0935,113.9448,"Inner Mongolia, China",23,21,15,11,9,9,7,4,4,4,3,3,3,3,3,1,1,1,0,0,0,0,0,0,2,14,17,19,20,22,32
32.0,53.0,Iran,749,1144,1968,2278,2667,3710,4009,4238,4530,5020,5687,6687,7891,9159,8624,9548,9792,10837,11413,11466,11419,12022,13306,13964,15315,16715,18821,21212,23278,24827,27051
33.0,44.0,Iraq,19,26,32,33,33,37,50,54,51,61,49,48,68,74,80,88,111,109,136,142,146,156,186,214,214,241,296,333,362,432,474
53.1424,-7.6921,Ireland,1,1,2,6,6,18,18,19,21,34,42,42,89,127,127,167,216,285,549,675,777,897,1114,1317,1550,1795,2094,2374,2564,2851,3159
54.2361,-4.5481,"Isle of Man, United Kingdom",0,0,0,0,0,0,0,0,0,0,0,0,0,0,0,0,0,0,0,1,1,5,13,23,23,25,29,32,42,49,60
31.0,35.0,Israel,9,9,11,14,19,35,41,59,59,71,75,96,122,151,209,214,239,293,416,515,675,845,1033,1182,2306,2617,2944,3518,4100,4518,5114
43.0,12.0,Italy,1577,1835,2263,2706,3296,3916,5061,6387,7985,8794,10590,10590,14955,17750,20603,23073,26062,28710,33190,38549,42681,46638,50826,54030,57521,62013,66414,70065,73880,75528,77635
18.1096,-77.2975,Jamaica,0,0,0,0,0,0,0,0,0,0,1,2,8,8,10,8,10,11,12,13,13,16,16,18,23,23,23,27,29,33,33
36.0,138.0,Japan,218,236,244,282,311,368,379,420,425,470,506,505,564,633,699,668,705,716,745,739,740,825,851,865,952,981,1047,1237,1388,1388,1473
32.9711,119.455,"Jiangsu, China",95,88,69,54,48,37,25,19,10,4,4,2,1,1,0,0,0,0,0,0,0,2,2,5,7,9,10,10,13,14,15
27.614,115.7221,"Jiangxi, China",103,84,64,50,33,25,18,15,11,7,2,0,0,0,0,0,0,0,0,0,0,1,1,1,1,1,1,1,2,1,1
43.6661,126.1923,"Jilin, China",14,9,9,6,4,2,2,2,1,1,1,1,1,1,1,0,0,0,0,0,0,0,0,0,1,2,2,4,5,5,5
31.24,36.51,Jordan,0,0,1,1,1,1,1,1,1,1,1,1,0,0,7,16,33,51,68,84,84,111,126,153,171,211,216,227,238,237,239
48.0196,66.9237,Kazakhstan,0,0,0,0,0,0,0,0,0,0,0,0,4,6,9,10,33,35,44,46,53,60,62,72,81,108,146,211,263,280,317
-0.0236,37.9062,Kenya,0,0,0,0,0,0,0,0,0,0,0,0,1,1,3,3,3,3,7,7,7,15,16,25,27,29,29,36,40,48,57
36.0,128.0,"Korea, South",3689,4277,5128,5545,6012,6416,6862,7146,7307,7212,7407,7470,7403,7504,7577,7024,6832,6789,6934,7018,7157,5941,5941,5410,5281,4966,4665,4523,4398,4275,4216
42.602636,20.902977,Kosovo,0,0,0,0,0,0,0,0,0,0,0,0,0,0,0,0,0,0,0,0,0,0,0,0,0,70,84,89,92,92,105
29.5,47.75,Kuwait,45,56,56,56,58,58,61,63,63,68,70,75,75,99,107,114,121,127,130,141,149,161,162,152,152,159,168,171,188,194,216
41.2044,74.7661,Kyrgyzstan,0,0,0,0,0,0,0,0,0,0,0,0,0,0,0,0,0,3,3,6,14,14,16,42,44,44,58,58,84,91,104
19.85627,102.495496,Laos,0,0,0,0,0,0,0,0,0,0,0,0,0,0,0,0,0,0,0,0,0,0,0,2,3,6,6,8,8,8,9
56.8796,24.6032,Latvia,0,1,1,1,1,1,1,2,6,7,9,9,16,25,29,33,48,70,85,110,123,138,179,196,220,243,279,304,346,375,397
33.8547,35.8623,Lebanon,10,13,13,12,15,21,21,31,31,39,57,57,73,89,106,106,114,127,149,155,179,236,255,306,307,339,356,374,398,400,421
41.2956,122.6085,"Liaoning, China",18,18,18,18,18,18,17,15,15,13,13,12,12,11,10,9,4,2,2,2,2,1,1,1,1,2,2,6,8,10,13
6.4281,-9.4295,Liberia,0,0,0,0,0,0,0,0,0,0,0,0,0,0,0,1,1,2,2,2,3,3,3,3,3,3,3,3,3,3,3
26.3351,17.228331,Libya,0,0,0,0,0,0,0,0,0,0,0,0,0,0,0,0,0,0,0,0,0,0,0,1,1,1,1,3,8,8,9
47.14,9.55,Liechtenstein,0,0,0,1,1,1,1,1,1,1,1,1,1,4,4,4,7,28,28,28,37,37,51,51,51,56,56,56,56,62,68
55.1694,23.8813,Lithuania,1,1,1,1,1,1,1,1,1,1,3,3,6,8,11,16,24,26,35,48,81,141,177,206,269,294,352,386,452,477,522
49.8153,6.1296,Luxembourg,1,1,1,1,1,2,2,3,3,5,7,19,34,50,58,76,139,201,331,480,662,784,861,1085,1319,1438,1550,1773,1889,1926,2075
0.0,0.0,MS Zaandam,0,0,0,0,0,0,0,0,0,0,0,0,0,0,0,0,0,0,0,0,0,0,0,0,0,0,0,2,2,2,2
22.1667,113.55,"Macau, China",2,2,1,1,1,0,0,0,0,0,0,0,0,0,0,1,2,5,7,7,8,14,14,15,20,21,23,27,27,28,31
-18.7669,46.8691,Madagascar,0,0,0,0,0,0,0,0,0,0,0,0,0,0,0,0,0,0,0,3,3,3,12,17,19,23,26,26,39,43,57
-13.254307999999998,34.301525,Malawi,0,0,0,0,0,0,0,0,0,0,0,0,0,0,0,0,0,0,0,0,0,0,0,0,0,0,0,0,0,0,0
2.5,112.5,Malaysia,11,11,14,28,28,61,70,75,93,105,123,123,171,203,386,524,622,728,823,940,1065,1157,1365,1425,1577,1793,1876,1973,2047,2110,2186
3.2028,73.2207,Maldives,0,0,0,0,0,0,0,4,4,6,8,8,9,10,13,13,13,13,13,13,13,13,13,8,5,5,7,7,4,4,5
17.570692,-3.996166000000001,Mali,0,0,0,0,0,0,0,0,0,0,0,0,0,0,0,0,0,0,0,0,0,0,0,0,2,4,11,18,17,23,26
35.9375,14.3754,Malta,0,0,0,0,0,0,3,3,3,5,6,6,11,17,20,28,36,36,51,62,71,88,105,108,127,132,137,147,149,154,167
14.6415,-61.0242,"Martinique, France",0,0,0,0,0,0,2,2,2,2,3,3,3,9,9,14,15,18,22,31,31,43,52,56,65,65,80,92,92,92,98
21.0079,10.9408,Mauritania,0,0,0,0,0,0,0,0,0,0,0,0,0,1,1,1,1,1,2,2,2,2,2,2,2,3,3,5,3,2,3
-20.2,57.5,Mauritius,0,0,0,0,0,0,0,0,0,0,0,0,0,0,0,0,0,3,3,12,13,26,34,40,46,79,92,100,104,125,138
-12.8275,45.1662,"Mayotte, France",0,0,0,0,0,0,0,0,0,0,0,0,0,0,1,1,1,3,3,6,7,11,24,36,36,36,50,63,63,72,83
23.6345,-102.5528,Mexico,5,5,4,4,4,5,5,6,6,3,4,8,22,37,49,78,89,114,159,197,245,309,359,396,465,573,701,828,969,1031,1151
47.4116,28.3699,Moldova,0,0,0,0,0,0,0,1,1,3,3,3,6,12,23,23,29,28,47,64,78,92,107,122,146,174,195,227,259,281,331
43.7333,7.4167,Monaco,1,1,1,1,1,1,1,1,1,1,1,2,2,2,2,7,7,7,7,11,11,22,22,22,30,32,41,41,44,47,49
46.8625,103.8467,Mongolia,0,0,0,0,0,0,0,0,0,1,1,1,1,1,1,1,5,6,6,6,10,10,10,10,10,11,11,12,12,10,10
42.5,19.3,Montenegro,0,0,0,0,0,0,0,0,0,0,0,0,0,0,0,0,2,2,3,14,14,21,26,46,51,68,81,83,84,90,107
16.7425,-62.1874,"Montserrat, United Kingdom",0,0,0,0,0,0,0,0,0,0,0,0,0,0,0,0,0,1,1,1,1,1,1,1,1,5,5,5,5,5,5
31.7917,-7.0926,Morocco,0,1,1,1,2,2,2,2,2,2,4,5,5,15,26,27,35,46,60,73,90,108,136,159,212,256,311,366,440,508,557
-18.665695,35.529562,Mozambique,0,0,0,0,0,0,0,0,0,0,0,0,0,0,0,0,0,0,0,0,0,1,1,3,5,7,7,8,8,8,8
-22.9576,18.4904,Namibia,0,0,0,0,0,0,0,0,0,0,0,0,0,2,2,2,2,2,3,3,3,3,4,5,5,6,6,6,9,9,9
28.1667,84.25,Nepal,0,0,0,0,0,0,0,0,0,0,0,0,0,0,0,0,0,0,0,0,0,0,1,1,2,2,3,4,4,4,4
52.1326,5.2913,Netherlands,10,18,24,38,82,127,187,262,318,378,498,498,794,945,1113,1387,1660,1991,2382,2886,3493,4023,4534,5282,6053,6994,8054,9120,9845,10636,11306
-20.9043,165.618,"New Caledonia, France",0,0,0,0,0,0,0,0,0,0,0,0,0,0,0,0,0,0,2,2,4,4,8,10,14,14,15,15,15,15,16
-33.8688,151.2093,"New South Wales, Australia",2,2,9,17,17,21,23,32,42,49,59,59,86,106,128,165,202,258,298,343,426,659,659,807,1018,1208,1394,1605,1779,2020,2020
-40.9006,174.886,New Zealand,1,1,1,3,3,4,5,5,5,5,5,5,5,6,8,8,12,20,28,39,52,102,102,143,183,256,331,401,457,525,572
12.8654,-85.2072,Nicaragua,0,0,0,0,0,0,0,0,0,0,0,0,0,0,0,0,0,0,1,1,2,2,2,2,2,2,1,3,3,3,4
17.6078,8.0817,Niger,0,0,0,0,0,0,0,0,0,0,0,0,0,0,0,0,0,0,0,1,1,2,3,3,6,9,9,9,17,24,24
9.082,8.6753,Nigeria,1,1,1,1,1,1,1,1,2,2,2,2,2,2,2,2,3,7,7,11,21,28,37,41,48,62,66,85,107,121,125
37.2692,106.1655,"Ningxia, China",4,5,5,6,6,4,4,4,4,4,3,3,3,2,2,0,0,0,0,0,0,0,0,0,0,0,0,0,0,0,0
41.6086,21.7453,North Macedonia,1,1,1,1,1,3,3,3,3,7,7,7,13,13,13,17,25,34,47,66,84,113,133,145,173,195,213,234,250,266,308
-12.4634,130.8456,"Northern Territory, Australia",0,0,0,1,1,0,0,0,0,1,1,1,1,1,1,1,1,1,1,3,3,5,5,6,6,12,12,15,15,15,17
60.472,8.4689,Norway,19,25,32,56,87,108,147,176,204,399,597,701,995,1086,1217,1329,1459,1543,1738,1906,2110,2377,2610,2845,3064,3349,3730,3985,4252,4401,4589
21.0,57.0,Oman,5,5,10,13,14,14,14,14,14,9,9,9,10,10,13,13,15,27,36,36,40,38,49,67,82,86,108,129,144,150,157
30.3753,69.3451,Pakistan,4,4,5,5,5,6,6,5,5,15,17,18,26,29,51,134,234,297,439,485,714,766,864,947,1034,1171,1339,1454,1554,1620,1836
8.538,-80.7821,Panama,0,0,0,0,0,0,0,0,0,1,7,10,26,35,42,54,68,85,108,136,199,310,339,338,434,548,663,770,880,961,1142
-6.315,143.9555,Papua New Guinea,0,0,0,0,0,0,0,0,0,0,0,0,0,0,0,0,0,0,0,1,1,1,1,1,1,1,1,1,1,1,1
-23.4425,-58.4438,Paraguay,0,0,0,0,0,0,0,1,1,1,5,5,6,6,6,8,9,11,11,13,17,21,21,25,34,38,48,52,55,60,61
-9.19,-75.0152,Peru,0,0,0,0,0,1,1,6,7,11,11,15,28,38,43,86,116,144,233,230,312,357,389,408,470,557,608,639,818,873,641
13.0,122.0,Philippines,1,1,1,1,1,3,4,8,18,30,46,48,57,101,127,128,170,178,192,204,275,338,412,497,572,634,718,972,1305,1426,1947
51.9194,19.1451,Poland,0,0,0,1,1,5,5,11,16,22,31,48,66,100,116,160,220,233,349,419,530,626,740,890,1030,1198,1366,1613,1833,2017,2271
39.3999,-8.2245,Portugal,0,2,2,5,8,13,20,30,30,41,59,59,111,167,243,328,444,443,779,1009,1263,1581,2032,2307,2930,3441,4149,5027,5800,6225,7240
25.3548,51.1839,Qatar,3,3,7,8,8,8,8,15,18,24,262,262,320,333,397,435,435,448,456,460,454,461,468,485,496,506,519,544,585,641,717
35.7452,95.9956,"Qinghai, China",0,0,0,0,0,0,0,0,0,0,0,0,0,0,0,0,0,0,0,0,0,0,0,0,0,0,0,0,0,0,0
-28.0167,153.4,"Queensland, Australia",8,8,10,10,5,5,5,7,7,10,12,12,27,38,53,60,70,86,136,176,213,251,311,389,435,484,546,616,646,679,733
-21.1351,55.2471,"Reunion, France",0,0,0,0,0,0,0,0,0,0,1,1,5,6,7,9,9,12,14,28,45,64,71,93,110,134,144,182,182,223,246
45.9432,24.9668,Romania,3,3,3,3,5,8,6,12,12,22,39,43,82,114,122,149,168,241,252,283,315,366,505,704,803,912,1151,1276,1566,1835,1943
60.0,90.0,Russia,0,1,1,1,2,11,11,14,14,17,17,25,42,51,55,82,106,139,189,243,293,350,421,472,626,799,987,1211,1462,1761,2199
-1.9403,29.8739,Rwanda,0,0,0,0,0,0,0,0,0,0,0,0,0,1,1,5,7,8,8,17,17,19,36,40,41,50,54,60,70,70,75
17.9,-62.8333,"Saint Barthelemy, France",0,0,0,3,3,3,3,3,1,1,1,1,1,1,1,3,3,3,3,3,3,3,3,3,3,3,5,5,5,5,5
17.357822,-62.782998,Saint Kitts and Nevis,0,0,0,0,0,0,0,0,0,0,0,0,0,0,0,0,0,0,0,0,0,0,0,0,2,2,2,2,2,7,8
13.9094,-60.9789,Saint Lucia,0,0,0,0,0,0,0,0,0,0,0,0,0,1,2,2,2,2,2,2,2,2,3,3,3,3,2,2,8,8,12
46.8852,-56.3159,"Saint Pierre and Miquelon, France",0,0,0,0,0,0,0,0,0,0,0,0,0,0,0,0,0,0,0,0,0,0,0,0,0,0,0,0,0,0,0
12.9843,-61.2872,Saint Vincent and the Grenadines,0,0,0,0,0,0,0,0,0,0,0,0,0,1,1,1,1,1,1,1,1,1,1,1,1,1,1,0,0,0,0
43.9424,12.4578,San Marino,1,8,9,15,20,20,22,35,35,49,60,66,75,71,92,98,98,104,104,126,120,151,163,162,183,183,198,196,196,192,197
0.18636,6.613081,Sao Tome and Principe,0,0,0,0,0,0,0,0,0,0,0,0,0,0,0,0,0,0,0,0,0,0,0,0,0,0,0,0,0,0,0
24.0,45.0,Saudi Arabia,0,1,1,1,5,5,5,11,15,19,20,44,85,102,102,116,165,165,268,336,376,495,546,738,869,976,1066,1162,1225,1330,1388
14.4974,-14.4524,Senegal,0,1,2,4,4,4,4,3,3,3,3,3,9,9,23,22,24,29,29,36,42,62,74,78,90,96,108,112,115,135,135
44.0165,21.0059,Serbia,0,0,0,0,0,1,1,1,1,5,12,19,35,46,48,54,64,82,102,133,169,219,245,285,365,383,456,649,728,769,884
-4.6796,55.492,Seychelles,0,0,0,0,0,0,0,0,0,0,0,0,0,2,2,3,4,4,6,7,7,7,7,7,7,7,7,8,8,8,10
35.1917,108.8701,"Shaanxi, China",36,28,28,21,20,18,18,17,17,17,12,11,11,11,11,10,7,6,6,7,6,6,6,6,7,8,8,8,8,8,8
36.3427,118.1498,"Shandong, China",309,292,241,236,174,134,125,110,52,33,28,20,14,12,12,7,8,8,7,7,8,10,10,9,10,12,13,13,13,13,14
31.202,121.4491,"Shanghai, China",44,42,41,37,33,33,26,25,24,22,21,20,19,26,26,27,30,32,34,42,50,72,71,80,98,115,129,146,153,155,163
37.5777,112.2922,"Shanxi, China",17,14,9,9,7,7,7,7,6,2,2,1,0,0,0,0,0,0,0,0,0,0,1,1,1,2,2,2,3,3,3
30.6171,102.7103,"Sichuan, China",170,149,141,129,111,94,82,72,70,58,48,38,33,25,20,20,17,12,1,2,3,4,4,6,8,8,9,9,11,11,11
8.460555000000001,-11.779889,Sierra Leone,0,0,0,0,0,0,0,0,0,0,0,0,0,0,0,0,0,0,0,0,0,0,0,0,0,0,0,0,0,0,1
1.2833,103.8333,Singapore,34,30,32,32,39,52,60,72,72,82,82,82,103,107,121,134,152,199,231,261,290,309,363,400,469,509,547,602,629,648,683
18.0425,-63.0548,"Sint Maarten, Netherlands",0,0,0,0,0,0,0,0,0,0,0,0,0,0,0,0,0,0,0,1,1,1,2,2,3,3,3,3,6,6,6
48.669,19.699,Slovakia,0,0,0,0,0,1,1,3,3,7,10,16,32,44,54,63,72,104,122,136,177,178,179,197,209,224,267,290,312,329,360
46.1512,14.9955,Slovenia,0,0,0,0,2,7,7,16,16,31,57,89,141,180,218,252,274,274,285,340,382,412,439,476,513,546,613,665,709,735,777
5.1521,46.1996,Somalia,0,0,0,0,0,0,0,0,0,0,0,0,0,0,0,1,1,1,1,1,1,1,1,1,1,2,3,3,3,3,4
-30.5595,22.9375,South Africa,0,0,0,0,1,1,1,3,3,7,13,17,24,38,51,62,62,116,150,202,240,274,402,550,697,915,1138,1155,1247,1292,1317
-34.9285,138.6007,"South Australia, Australia",1,1,1,3,3,5,5,5,5,5,7,7,13,16,17,26,26,34,39,47,64,97,131,167,164,229,251,281,293,299,331
6.877000000000002,31.307,South Sudan,0,0,0,0,0,0,0,0,0,0,0,0,0,0,0,0,0,0,0,0,0,0,0,0,0,0,0,0,0,0,0
40.0,-4.0,Spain,82,118,162,218,254,393,460,626,1013,1628,2040,2039,4906,5679,6992,9070,10187,12206,16026,17779,21874,24421,30250,33283,40501,46406,51224,54968,58598,63460,68200
7.0,81.0,Sri Lanka,0,0,0,0,0,0,0,0,0,0,1,1,5,9,17,27,43,50,57,70,76,79,94,100,99,99,99,103,105,105,124
18.0708,-63.0501,"St Martin, France",0,0,0,0,0,0,0,0,2,2,2,2,2,2,2,2,2,3,4,4,4,5,8,8,11,11,11,11,11,12,12
12.8628,30.2176,Sudan,0,0,0,0,0,0,0,0,0,0,0,0,0,0,0,0,0,1,1,1,1,1,1,2,2,2,2,4,5,4,4
3.9193,-56.0278,Suriname,0,0,0,0,0,0,0,0,0,0,0,0,0,1,1,1,1,1,1,4,4,5,5,7,8,8,8,8,8,8,9
63.0,16.0,Sweden,14,15,21,35,94,101,161,203,247,354,498,597,812,958,1018,1096,1182,1268,1412,1607,1727,1897,2005,2234,2448,2747,2948,3326,3574,3866,4239
46.8182,8.2275,Switzerland,27,42,54,87,110,210,264,332,369,485,644,644,1124,1342,2182,2182,2669,2985,4019,5225,6485,7245,8544,9624,10613,11489,11167,12282,12934,13740,14349
34.802075,38.99681500000001,Syria,0,0,0,0,0,0,0,0,0,0,0,0,0,0,0,0,0,0,0,0,0,1,1,1,5,5,5,5,8,8,8
23.7,121.0,Taiwan*,30,28,29,29,31,32,32,31,29,29,30,28,29,32,38,46,54,77,81,107,123,139,165,184,204,221,236,251,266,262,278
38.861034000000004,71.276093,Tajikistan,0,0,0,0,0,0,0,0,0,0,0,0,0,0,0,0,0,0,0,0,0,0,0,0,0,0,0,0,0,0,0
-6.369,34.8888,Tanzania,0,0,0,0,0,0,0,0,0,0,0,0,0,0,0,1,1,3,6,6,6,12,12,12,12,13,12,13,13,18,17
-41.4545,145.9707,"Tasmania, Australia",0,1,1,1,1,1,1,2,2,2,3,3,5,5,6,7,7,10,7,7,13,19,25,25,33,44,44,57,61,61,63
15.0,101.0,Thailand,13,11,11,11,15,16,18,18,18,19,24,35,39,46,78,111,135,169,229,279,368,554,676,771,860,953,1034,1142,1284,1286,1299
39.3054,117.323,"Tianjin, China",22,22,9,9,5,5,5,5,3,2,2,1,1,1,0,0,0,0,1,1,1,1,5,9,9,15,19,25,30,38,36
31.6927,88.0924,"Tibet, China",0,0,0,0,0,0,0,0,0,0,0,0,0,0,0,0,0,0,0,0,0,0,0,0,0,0,0,0,0,0,0
-8.874217,125.727539,Timor-Leste,0,0,0,0,0,0,0,0,0,0,0,0,0,0,0,0,0,0,0,0,0,1,1,1,1,1,1,1,1,1,1
8.6195,0.8248,Togo,0,0,0,0,0,1,1,1,1,1,1,1,1,1,1,1,1,1,1,8,15,15,17,19,22,22,23,23,23,28,23
10.6918,-61.2225,Trinidad and Tobago,0,0,0,0,0,0,0,0,0,0,0,0,0,2,2,4,5,7,9,9,48,49,50,57,59,64,63,70,74,78,83
34.0,9.0,Tunisia,0,0,0,1,1,1,1,2,2,5,7,7,16,18,18,20,24,29,38,53,59,71,85,109,166,189,219,268,302,301,381
38.9637,35.2433,Turkey,0,0,0,0,0,0,0,0,0,0,1,1,5,5,6,18,46,97,189,355,661,1206,1492,1828,2348,3528,5564,7224,8981,10497,13074
21.69400000000001,-71.7979,"Turks and Caicos Islands, United Kingdom",0,0,0,0,0,0,0,0,0,0,0,0,0,0,0,0,0,0,0,0,0,0,0,0,0,0,0,4,4,5,5
37.0902,-95.7129,US,66,85,104,131,198,241,378,490,554,923,1237,1610,2118,2657,3414,4516,6271,7514,13368,18777,24982,32512,42879,52380,64101,81429,98523,117662,134824,151995,175781
1.0,32.0,Uganda,0,0,0,0,0,0,0,0,0,0,0,0,0,0,0,0,0,0,0,0,1,1,9,9,14,14,23,30,33,33,44
48.3794,31.1656,Ukraine,0,0,1,1,1,1,1,1,1,1,1,1,2,2,2,6,12,12,14,26,43,69,69,93,139,190,300,342,459,527,618
24.0,54.0,United Arab Emirates,16,16,22,22,24,24,38,38,38,62,57,68,68,68,75,75,75,87,109,107,113,113,158,201,279,279,351,414,509,545,597
55.3781,-3.4360000000000004,United Kingdom,28,32,43,77,107,154,186,253,300,357,431,429,770,1094,1079,1458,1817,2446,2466,3724,4703,5333,6226,7434,8700,10646,13247,15499,17718,19963,22590
-32.5228,-55.7658,Uruguay,0,0,0,0,0,0,0,0,0,0,0,0,0,4,4,8,29,50,79,94,110,158,162,162,189,217,238,274,303,309,296
41.3775,64.5853,Uzbekistan,0,0,0,0,0,0,0,0,0,0,0,0,0,0,1,6,10,15,23,33,43,43,46,50,60,75,82,97,135,140,163
6.4238,-66.5897,Venezuela,0,0,0,0,0,0,0,0,0,0,0,0,0,2,10,17,33,36,42,42,70,55,62,69,76,92,75,78,78,93,93
-37.8136,144.9631,"Victoria, Australia",3,5,5,6,3,3,4,4,8,11,14,14,28,41,49,63,86,113,113,113,221,285,285,314,369,368,400,491,574,626,622
16.0,108.0,Vietnam,0,0,0,0,0,0,2,14,14,15,22,23,31,37,40,45,50,59,69,75,77,96,106,117,124,133,143,153,163,148,154
31.9522,35.2332,West Bank and Gaza,0,0,0,0,4,7,16,16,19,26,30,30,31,35,38,38,39,41,44,30,31,35,42,42,42,66,73,79,90,97,100
-31.9505,115.8605,"Western Australia, Australia",1,1,1,1,2,2,2,2,3,5,8,8,13,16,16,27,30,34,51,63,89,119,139,174,173,228,228,248,281,312,321
24.2155,-12.8858,Western Sahara,0,0,0,0,0,0,0,0,0,0,0,0,0,0,0,0,0,0,0,0,0,0,0,0,0,0,0,0,0,0,0
41.1129,85.2401,"Xinjiang, China",9,7,5,4,3,2,1,0,0,0,0,0,0,0,0,0,0,0,0,0,0,0,0,0,0,0,0,0,0,0,0
15.552727,48.516388,Yemen,0,0,0,0,0,0,0,0,0,0,0,0,0,0,0,0,0,0,0,0,0,0,0,0,0,0,0,0,0,0,0
24.974,101.487,"Yunnan, China",9,4,3,3,3,2,2,2,2,2,2,2,2,0,0,2,2,2,2,2,2,2,2,2,2,4,6,6,6,6,8
-15.4167,28.2833,Zambia,0,0,0,0,0,0,0,0,0,0,0,0,0,0,0,0,0,2,2,2,2,3,3,3,12,16,22,28,29,35,35
29.1832,120.0934,"Zhejiang, China",158,136,119,98,90,67,60,53,38,23,19,17,17,15,19,14,15,15,15,14,16,18,16,18,19,20,24,25,28,29,30
-20.0,30.0,Zimbabwe,0,0,0,0,0,0,0,0,0,0,0,0,0,0,0,0,0,0,0,1,3,3,2,2,2,2,4,6,6,6,7
